City_ID,City,Country,Date,Lat,Lng,Max Temp,Humidity,Cloudiness,Wind Speed
0,Port Alfred,ZA,11/9/2020 11:15,-33.59,26.89,61.56,80,100,19.73
1,Castro,BR,11/9/2020 11:15,-24.79,-50.01,62.28,89,92,7.36
2,Brae,GB,11/9/2020 11:15,60.4,-1.35,51.8,93,75,12.75
3,Santa Lucia,ES,11/9/2020 11:15,27.91,-15.54,75,64,40,16.11
4,Sompeta,IN,11/9/2020 11:15,18.93,84.6,78.66,58,0,8.39
5,Dingle,PH,11/9/2020 11:15,11,122.67,78.03,88,87,4.43
6,Hay River,CA,11/9/2020 11:15,60.82,-115.8,21.2,73,54,16.11
7,Albany,US,11/9/2020 11:15,42.6,-73.97,42.01,100,1,1.68
8,Gorontalo,ID,11/9/2020 11:15,0.54,123.06,77.34,79,51,4.81
9,Pacific Grove,US,11/9/2020 11:15,36.62,-121.92,44.6,65,1,8.05
10,Arraial Do Cabo,BR,11/9/2020 11:11,-22.97,-42.03,75.2,94,90,3.36
11,Hermanus,ZA,11/9/2020 11:15,-34.42,19.23,64,48,39,3
12,Carnarvon,AU,11/9/2020 11:15,-24.87,113.63,71.6,78,75,17.22
13,Cape Town,ZA,11/9/2020 11:13,-33.93,18.42,69.01,45,40,5.82
14,Merritt Island,US,11/9/2020 11:15,28.54,-80.67,79,88,90,18.34
15,Souillac,MU,11/9/2020 11:15,-20.52,57.52,78.8,69,40,12.75
16,Rikitea,PF,11/9/2020 11:15,-23.12,-134.97,72.73,78,43,15.82
17,Challapata,BO,11/9/2020 11:15,-18.9,-66.77,49.19,56,0,3.27
18,Avarua,CK,11/9/2020 11:14,-21.21,-159.78,71.6,94,100,4.7
19,Punta Arenas,CL,11/9/2020 11:15,-53.15,-70.92,41,80,0,9.17
20,Monastyrshchina,RU,11/9/2020 11:15,54.35,31.84,40.77,67,33,6.35
21,Tawang,IN,11/9/2020 11:15,27.58,91.87,46.29,73,36,2.1
22,Atuona,PF,11/9/2020 11:15,-9.8,-139.03,77.14,71,18,10.67
23,Naze,JP,11/9/2020 11:14,28.37,129.48,68,63,20,11.41
24,Bengkulu,ID,11/9/2020 11:15,-3.8,102.27,78.42,82,100,0.69
25,Dikson,RU,11/9/2020 11:15,73.51,80.55,3.24,94,100,10.96
26,Virginia Beach,US,11/9/2020 11:11,36.85,-75.98,55.4,93,75,3.36
27,Bredasdorp,ZA,11/9/2020 11:15,-34.53,20.04,66.2,45,0,14.99
28,Weligama,LK,11/9/2020 11:15,5.97,80.42,82.92,71,38,5.17
29,Meadow Lake,US,11/9/2020 11:15,34.8,-106.54,51.01,34,40,8.05
30,Bethel,US,11/9/2020 11:15,41.37,-73.41,46.4,93,1,2.82
31,Karonga,MW,11/9/2020 11:15,-9.93,33.93,89.94,37,0,10.51
32,Ushuaia,AR,11/9/2020 11:15,-54.8,-68.3,39.2,55,75,9.17
33,Kingaroy,AU,11/9/2020 11:15,-26.53,151.83,62.6,67,40,11.41
34,Kapaa,US,11/9/2020 11:15,22.08,-159.32,78.8,78,20,18.34
35,Busselton,AU,11/9/2020 11:11,-33.65,115.33,52,91,51,1.99
36,Hobart,AU,11/9/2020 11:11,-42.88,147.33,62.6,63,0,5.82
37,Romanovskaya,RU,11/9/2020 11:15,47.54,42.03,50.02,75,100,2.01
38,College,US,11/9/2020 11:15,64.86,-147.8,28.4,79,90,10.29
39,Vao,NC,11/9/2020 11:15,-22.67,167.48,71.1,64,4,13.65
40,Tuktoyaktuk,CA,11/9/2020 11:15,69.45,-133.04,0,91,90,14.72
41,Mataura,NZ,11/9/2020 11:15,-46.19,168.86,46,89,31,3
42,Constitucion,CL,11/9/2020 11:15,-35.33,-72.42,56.55,66,0,5.12
43,Hasaki,JP,11/9/2020 11:15,35.73,140.83,51.8,71,75,2.24
44,Beloha,MG,11/9/2020 11:16,-25.17,45.05,104.9,8,0,11.81
45,Ballina,AU,11/9/2020 11:16,-28.87,153.57,62.6,93,90,8.59
46,Tahta,EG,11/9/2020 11:16,26.77,31.5,78.8,39,0,6.93
47,Severo-Kurilsk,RU,11/9/2020 11:16,50.68,156.12,37.04,90,100,14.85
48,Khudumelapye,BW,11/9/2020 11:11,-23.88,24.75,90.93,29,90,11.45
49,Esperance,AU,11/9/2020 11:11,-33.87,121.9,68,72,40,11.41
50,Faanui,PF,11/9/2020 11:16,-16.48,-151.75,78.55,79,100,12.33
51,Mar Del Plata,AR,11/9/2020 11:15,-38,-57.56,62.01,93,75,4.7
52,Alta Floresta,BR,11/9/2020 11:16,-9.88,-56.09,74.14,94,100,0.6
53,Caravelas,BR,11/9/2020 11:16,-17.71,-39.25,80.2,68,74,7.31
54,Cidreira,BR,11/9/2020 11:11,-30.18,-50.21,68.74,86,100,17.38
55,Khatanga,RU,11/9/2020 11:16,71.97,102.5,16.02,96,100,18.3
56,Hilo,US,11/9/2020 11:16,19.73,-155.09,71.6,73,1,4.7
57,Huarmey,PE,11/9/2020 11:16,-10.07,-78.15,59.85,87,97,4.74
58,Ahipara,NZ,11/9/2020 11:16,-35.17,173.17,54.64,89,98,5.44
59,Kinablangan,PH,11/9/2020 11:16,7.69,126.55,80.56,79,97,1.01
60,Puerto Ayora,EC,11/9/2020 11:16,-0.74,-90.35,64.99,91,89,1.01
61,Bluff,NZ,11/9/2020 11:16,-46.6,168.33,46,89,0,3
62,Richards Bay,ZA,11/9/2020 11:16,-28.78,32.04,77.27,71,90,13.44
63,Jiquilisco,SV,11/9/2020 11:16,13.32,-88.58,75.2,100,40,4.7
64,Touros,BR,11/9/2020 11:16,-5.2,-35.46,75.2,94,75,11.41
65,Broome,US,11/9/2020 11:16,42.25,-75.83,48.2,66,1,1.63
66,Port Lincoln,AU,11/9/2020 11:16,-34.73,135.87,71.98,42,0,17.85
67,Nanortalik,GL,11/9/2020 11:16,60.14,-45.24,25.16,97,100,25.12
68,Outram,MY,11/9/2020 11:16,1.28,103.84,82.4,83,75,5.82
69,Yellowknife,CA,11/9/2020 11:16,62.46,-114.35,30.2,80,75,16.11
70,Acarau,BR,11/9/2020 11:16,-2.89,-40.12,84.85,63,5,17.49
71,Kaitangata,NZ,11/9/2020 11:16,-46.28,169.85,52,74,28,1.12
72,Kahului,US,11/9/2020 11:16,20.89,-156.47,78.8,65,1,16.11
73,Maunabo,PR,11/9/2020 11:16,18.01,-65.9,77,98,100,11.27
74,Sioux Lookout,CA,11/9/2020 11:16,50.1,-91.92,51.8,87,90,9.17
75,Lorengau,PG,11/9/2020 11:16,-2.02,147.27,81.86,73,97,2.86
76,Roebourne,AU,11/9/2020 11:16,-20.78,117.13,79.68,42,0,19.35
77,Yar-Sale,RU,11/9/2020 11:16,66.83,70.83,15.51,96,100,8.03
78,Taitung,TW,11/9/2020 11:16,22.76,121.14,69.8,73,75,11.41
79,Velke Karlovice,CZ,11/9/2020 11:16,49.36,18.28,48,100,0,2.24
80,Nikolskoye,RU,11/9/2020 11:16,59.7,30.79,41,86,90,13.42
81,Tautira,PF,11/9/2020 11:16,-17.73,-149.15,77,83,100,4.7
82,Abu Samrah,SY,11/9/2020 11:16,35.3,37.18,71.55,39,72,10.33
83,Evensk,RU,11/9/2020 11:16,61.95,159.23,7.03,86,96,11.95
84,Nizwa,OM,11/9/2020 11:16,22.93,57.53,86.61,30,60,1.52
85,Cabo San Lucas,MX,11/9/2020 11:16,22.89,-109.91,69.01,82,4,1.99
86,Mabaruma,GY,11/9/2020 11:16,8.2,-59.78,74.21,98,94,3
87,Luderitz,NA,11/9/2020 11:16,-26.65,15.16,72.84,33,0,35.72
88,Yaan,NG,11/9/2020 11:16,7.38,8.57,93.33,41,36,2.37
89,Iskateley,RU,11/9/2020 11:16,67.68,53.15,26.6,98,86,5.23
90,Kyaukse,MM,11/9/2020 11:16,21.6,96.13,86,62,20,3.36
91,Sakaiminato,JP,11/9/2020 11:16,35.55,133.23,55.4,54,75,8.05
92,Iqaluit,CA,11/9/2020 11:16,63.75,-68.51,14,78,90,16.11
93,Barrow,US,11/9/2020 11:15,71.29,-156.79,14,78,90,18.34
94,Teya,RU,11/9/2020 11:16,60.38,92.63,33.75,90,93,12.73
95,Lokomotivnyy,RU,11/9/2020 11:16,53.01,60.57,35.58,77,25,15.37
96,Aklavik,CA,11/9/2020 11:16,68.22,-135.01,8.6,84,90,12.75
97,Kiunga,PG,11/9/2020 11:16,-6.12,141.29,76.05,97,100,5.08
98,Saskylakh,RU,11/9/2020 11:16,71.92,114.08,3.29,89,100,25.21
99,Pevek,RU,11/9/2020 11:16,69.7,170.31,18.3,93,99,6.53
100,East London,ZA,11/9/2020 11:16,-33.02,27.91,66.2,68,40,20.8
101,Qaanaaq,GL,11/9/2020 11:16,77.48,-69.36,0,71,6,6.35
102,Trenggalek,ID,11/9/2020 11:16,-8.05,111.72,77.7,79,96,4.7
103,Asau,RO,11/9/2020 11:16,46.43,26.4,54,74,67,3.58
104,Oparino,RU,11/9/2020 11:16,59.85,48.28,32.2,94,100,11.68
105,Quatre Cocos,MU,11/9/2020 11:16,-20.21,57.76,78.8,69,40,12.75
106,Mahon,ES,11/9/2020 11:16,39.89,4.27,68,82,20,5.82
107,Cayenne,GF,11/9/2020 11:16,4.93,-52.33,75.2,100,0,9.48
108,Lebu,CL,11/9/2020 11:16,-37.62,-73.65,51.73,90,21,13.73
109,General Bravo,MX,11/9/2020 11:16,25.8,-99.17,69.6,86,0,11.72
110,Dongfeng,CN,11/9/2020 11:16,42.64,125.51,22.98,80,0,4.74
111,Merauke,ID,11/9/2020 11:16,-8.47,140.33,80.06,82,100,9.28
112,Sassandra,CI,11/9/2020 11:16,4.95,-6.08,86.81,60,38,4.59
113,Sola,VU,11/9/2020 11:16,-13.88,167.55,81.54,81,100,13.06
114,Ostrovnoy,RU,11/9/2020 11:16,68.05,39.51,30.61,96,83,15.37
115,Ardrishaig,GB,11/9/2020 11:16,56.02,-5.45,53.6,81,20,5.82
116,Cap Malheureux,MU,11/9/2020 11:16,-19.98,57.61,78.01,71,5,11.99
117,Te Anau,NZ,11/9/2020 11:16,-45.42,167.72,44.92,89,8,3.38
118,Kloulklubed,PW,11/9/2020 11:16,7.04,134.26,78.8,88,75,8.05
119,Fenton,US,11/9/2020 11:16,42.8,-83.7,60.8,63,1,5.82
120,Grand-Santi,GF,11/9/2020 11:16,4.25,-54.38,75.24,83,33,3.29
121,Mahebourg,MU,11/9/2020 11:16,-20.41,57.7,78.8,69,40,12.75
122,Bambous Virieux,MU,11/9/2020 11:16,-20.34,57.76,78.8,69,40,12.75
123,Sambava,MG,11/9/2020 11:16,-14.27,50.17,80.78,67,59,14.83
124,Bucak,TR,11/9/2020 11:16,37.46,30.59,78.8,39,0,2.24
125,Hambantota,LK,11/9/2020 11:16,6.12,81.12,82.4,94,75,4.7
126,Boguchany,RU,11/9/2020 11:16,58.38,97.45,37.29,85,99,7.94
127,Floro,NO,11/9/2020 11:16,61.6,5.03,50,71,0,4.7
128,Romanovo,RU,11/9/2020 11:16,52.62,81.23,40.53,64,81,19.62
129,Roma,US,11/9/2020 11:12,43.21,-75.46,37.4,86,1,3.31
130,Georgetown,MY,11/9/2020 11:16,5.41,100.34,84.2,74,20,3.36
131,Ust-Ishim,RU,11/9/2020 11:16,57.69,71.17,32.49,97,100,12.71
132,Ruteng,ID,11/9/2020 11:16,-8.61,120.47,65.62,100,100,2.53
133,Myitkyina,MM,11/9/2020 11:16,25.38,97.4,73.35,60,0,0.72
134,Tigil,RU,11/9/2020 11:16,57.8,158.67,20.19,90,22,1.81
135,Mandalgovi,MN,11/9/2020 11:16,45.76,106.27,35.26,68,2,9.1
136,Jamestown,US,11/9/2020 11:16,42.1,-79.24,48.2,70,1,6.93
137,Bronnoysund,NO,11/9/2020 11:16,65.46,12.2,44.6,70,40,4.7
138,Dakar,SN,11/9/2020 11:15,14.69,-17.44,84.2,74,0,11.41
139,Vanimo,PG,11/9/2020 11:16,-2.67,141.3,81,78,98,4.56
140,Reforma,MX,11/9/2020 11:16,18.1,-91.02,69.28,96,17,4.12
141,Cascais,PT,11/9/2020 11:16,38.7,-9.42,66.99,68,40,3.36
142,Narsaq,GL,11/9/2020 11:16,60.92,-46.05,26.6,92,75,0.87
143,Vardo,NO,11/9/2020 11:16,70.37,31.11,33.8,80,40,23.04
144,Santa Ana,US,11/9/2020 11:15,33.75,-117.87,50,66,1,2.75
145,Harper,LR,11/9/2020 11:16,4.38,-7.72,84.38,67,52,5.37
146,Flin Flon,CA,11/9/2020 11:16,54.77,-101.86,11.19,95,100,14.67
147,New Norfolk,AU,11/9/2020 11:16,-42.78,147.06,62.6,63,0,5.82
148,The Pas,CA,11/9/2020 11:16,53.83,-101.25,14,85,90,14.99
149,Dunedin,NZ,11/9/2020 11:14,-45.87,170.5,52,74,90,0.83
150,Alice Springs,AU,11/9/2020 11:12,-23.7,133.88,93.2,10,61,5.82
151,Acapulco,MX,11/9/2020 11:14,16.86,-99.89,77.18,81,7,2.08
152,Bailen,ES,11/9/2020 11:16,38.1,-3.78,64,68,36,1.41
153,Mwinilunga,ZM,11/9/2020 11:16,-11.74,24.43,91.51,26,31,4.45
154,Krasnyy Chikoy,RU,11/9/2020 11:16,50.36,108.75,30.47,93,0,3.56
155,Kilindoni,TZ,11/9/2020 11:16,-7.91,39.67,81.03,76,21,12.62
156,Batticaloa,LK,11/9/2020 11:16,7.71,81.69,83.61,73,14,9.42
157,Camana,PE,11/9/2020 11:16,-16.62,-72.71,63.59,79,89,6.53
158,Katsuura,JP,11/9/2020 11:16,35.13,140.3,60.8,41,40,6.93
159,Geraldton,AU,11/9/2020 11:16,-28.77,114.6,64.4,55,90,21.92
160,Fairhope,US,11/9/2020 11:16,30.52,-87.9,66,100,4,6.93
161,Thompson,CA,11/9/2020 11:16,55.74,-97.86,8.6,84,90,17.22
162,Arlit,NE,11/9/2020 11:16,18.74,7.39,79.86,22,0,2.26
163,Kavieng,PG,11/9/2020 11:16,-2.57,150.8,83.23,71,60,3.98
164,Pavlikeni,BG,11/9/2020 11:16,43.24,25.32,42.8,100,90,2.24
165,Ures,MX,11/9/2020 11:16,29.43,-110.4,48.99,73,0,0.96
166,Gamba,GA,11/9/2020 11:16,-2.65,10,74.71,93,100,9.42
167,Grootfontein,NA,11/9/2020 11:16,-19.57,18.12,93.58,13,2,10.13
168,Chernenko,RU,11/9/2020 11:16,44.37,39.31,61.57,44,0,3.76
169,Poya,NC,11/9/2020 11:16,-21.35,165.15,70.45,73,52,10.13
170,Nyazepetrovsk,RU,11/9/2020 11:16,56.05,59.6,30.92,97,100,13.56
171,Oruro,BO,11/9/2020 11:16,-17.98,-67.15,46.81,66,1,5.14
172,Upernavik,GL,11/9/2020 11:16,72.79,-56.15,0,78,77,10.18
173,Bartica,GY,11/9/2020 11:16,6.4,-58.62,73.4,100,40,2.24
174,Butaritari,KI,11/9/2020 11:16,3.07,172.79,81.5,71,0,10.8
175,Vaini,TO,11/9/2020 11:16,-21.2,-175.2,69.8,94,20,3.36
176,Tres Passos,BR,11/9/2020 11:12,-27.46,-53.93,70.97,85,81,6.24
177,Passi,PH,11/9/2020 11:16,11.15,122.65,77,90,95,2.75
178,Hithadhoo,MV,11/9/2020 11:16,-0.6,73.08,84.7,73,97,13.04
179,Koshurnikovo,RU,11/9/2020 11:16,54.17,93.3,32.59,97,100,3.22
180,Jasper,US,11/9/2020 11:15,37.2,-94.35,64.4,88,20,8.05
181,Kjopsvik,NO,11/9/2020 11:16,68.1,16.37,42.01,60,75,16.11
182,Kupino,RU,11/9/2020 11:16,54.37,77.3,35.87,87,100,23.13
183,Tshikapa,CD,11/9/2020 11:16,-6.42,20.8,84.54,73,96,3.91
184,Saint-Philippe,RE,11/9/2020 11:16,-21.36,55.77,80.6,69,20,23.04
185,Havelock,US,11/9/2020 11:16,34.88,-76.9,66,93,90,8.05
186,Port Elizabeth,ZA,11/9/2020 11:16,-33.92,25.57,59,87,40,19.46
187,Auki,SB,11/9/2020 11:16,-8.77,160.7,79.05,82,72,2.19
188,Shabo,UA,11/9/2020 11:16,46.13,30.39,48.2,100,90,8.95
189,Norman Wells,CA,11/9/2020 11:16,65.28,-126.83,17.6,92,75,4.72
190,Meulaboh,ID,11/9/2020 11:16,4.14,96.13,80.64,79,100,1.77
191,Matara,LK,11/9/2020 11:16,5.95,80.54,82.69,72,49,5.84
192,Saint-Pierre,RE,11/9/2020 11:16,-21.34,55.48,80.6,69,20,23.04
193,Itarema,BR,11/9/2020 11:16,-2.92,-39.92,84.79,63,6,17.11
194,Talnakh,RU,11/9/2020 11:16,69.49,88.4,23,100,40,13.42
195,Paray-Le-Monial,FR,11/9/2020 11:16,46.45,4.12,59,77,0,2.24
196,Soyo,AO,11/9/2020 11:16,-6.13,12.37,80.15,77,99,11.81
197,Chokurdakh,RU,11/9/2020 11:16,70.63,147.92,0,90,100,2.39
198,Bayshore Gardens,US,11/9/2020 11:16,27.43,-82.59,78.8,83,90,14.99
199,Sabha,LY,11/9/2020 11:16,27.04,14.43,70.3,44,0,5.95
200,Bermeo,ES,11/9/2020 11:16,43.42,-2.72,69.01,52,20,11.41
201,Clyde River,CA,11/9/2020 11:16,70.47,-68.59,0,70,1,16.11
202,Ibra,OM,11/9/2020 11:16,22.69,58.53,88.74,31,48,11.74
203,Pangnirtung,CA,11/9/2020 11:16,66.15,-65.71,6.62,82,73,3.09
204,Salalah,OM,11/9/2020 11:11,17.02,54.09,87.8,31,0,5.82
205,Oranjestad,AW,11/9/2020 11:12,12.52,-70.03,78.8,94,40,3.36
206,Sitka,US,11/9/2020 11:14,57.05,-135.33,42.8,93,90,6.93
207,Vestmannaeyjar,IS,11/9/2020 11:16,63.44,-20.27,44.6,93,90,35.57
208,Canton,CN,11/9/2020 11:16,23.12,113.25,75.99,31,0,8.95
209,Lawigan,PH,11/9/2020 11:16,10.49,122.04,78.3,83,48,2.42
210,Kaputa,ZM,11/9/2020 11:16,-8.47,29.66,88.36,37,100,5.97
211,Kalmunai,LK,11/9/2020 11:16,7.42,81.82,83.88,71,19,10.09
212,Petropavlovsk-Kamchatskiy,RU,11/9/2020 11:16,53.05,158.65,23,67,98,11.18
213,Aksu,CN,11/9/2020 11:16,41.12,80.26,49.46,40,100,2.1
214,Fairbanks,US,11/9/2020 11:16,64.84,-147.72,28.4,92,90,4.7
215,Ponta Do Sol,PT,11/9/2020 11:16,32.67,-17.1,68,60,40,10.29
216,Torbay,CA,11/9/2020 11:16,47.67,-52.73,33.01,92,75,4.7
217,Sao Sebastiao,BR,11/9/2020 11:16,-23.76,-45.41,74.03,74,82,0.81
218,Qaqortoq,GL,11/9/2020 11:16,60.72,-46.03,26.6,92,75,3.56
219,Martapura,ID,11/9/2020 11:16,-3.42,114.85,82.4,83,20,3.36
220,Alyangula,AU,11/9/2020 11:16,-13.85,136.42,84.2,74,51,6.93
221,Calvinia,ZA,11/9/2020 11:16,-31.47,19.78,62.6,29,0,10.29
222,Beringovskiy,RU,11/9/2020 11:16,63.05,179.32,31.48,97,100,23.42
223,Paamiut,GL,11/9/2020 11:16,61.99,-49.67,21.34,89,100,34.05
224,Taian,CN,11/9/2020 11:16,36.19,117.12,61,34,1,0.98
225,Isangel,VU,11/9/2020 11:16,-19.55,169.27,74.8,78,95,15.28
226,Sao Joao Da Barra,BR,11/9/2020 11:16,-21.64,-41.05,77,88,90,2.24
227,Buraydah,SA,11/9/2020 11:16,26.33,43.98,87.8,35,0,9.17
228,Hualmay,PE,11/9/2020 11:16,-11.1,-77.61,61.12,86,86,5.06
229,Omsukchan,RU,11/9/2020 11:16,62.53,155.8,0,87,100,4.94
230,Ribeira Grande,PT,11/9/2020 11:16,38.52,-28.7,66.2,68,75,20.8
231,Kieta,PG,11/9/2020 11:16,-6.22,155.63,80.67,76,95,2.1
232,Tuatapere,NZ,11/9/2020 11:16,-46.13,167.68,46,89,20,3
233,Opuwo,NA,11/9/2020 11:16,-18.06,13.84,96.94,11,69,8.63
234,Yuci,CN,11/9/2020 11:16,37.68,112.73,48.2,31,0,2.24
235,Namibe,AO,11/9/2020 11:16,-15.2,12.15,78.8,74,20,13.87
236,Planadas,CO,11/9/2020 11:16,3.2,-75.65,62.15,68,92,5.03
237,Mogadishu,SO,11/9/2020 11:16,2.04,45.34,84.2,62,75,10.29
238,Suluq,LY,11/9/2020 11:16,31.67,20.25,72.57,44,14,5.95
239,Hamilton,US,11/9/2020 11:16,39.18,-84.53,57.2,67,1,5.82
240,Pimentel,PE,11/9/2020 11:17,-6.84,-79.93,60.75,89,100,8.16
241,Codrington,AU,11/9/2020 11:17,-38.27,141.97,64.29,81,81,9.69
242,Wonthaggi,AU,11/9/2020 11:17,-38.6,145.59,68,71,65,10.56
243,Aktau,KZ,11/9/2020 11:17,43.65,51.2,59,67,40,13.42
244,Thomaston,US,11/9/2020 11:17,32.89,-84.33,66.2,88,90,10.29
245,Kayerkan,RU,11/9/2020 11:17,69.35,87.76,23,100,40,13.42
246,Los Llanos De Aridane,ES,11/9/2020 11:17,28.66,-17.92,73.4,69,75,10.29
247,Tiruchchendur,IN,11/9/2020 11:17,8.48,78.12,87.8,62,75,6.93
248,Marsabit,KE,11/9/2020 11:17,2.33,37.99,72.7,70,88,10.96
249,Ulladulla,AU,11/9/2020 11:17,-35.35,150.47,57.2,82,0,5.82
250,Mehamn,NO,11/9/2020 11:17,71.04,27.85,35.6,64,75,18.34
251,Alekseyevka,RU,11/9/2020 11:17,50.63,38.69,51.6,66,51,5.59
252,Primorka,RU,11/9/2020 11:17,47.28,39.06,51.76,64,100,4.7
253,Tasiilaq,GL,11/9/2020 11:17,65.61,-37.64,33.89,94,100,41.65
254,Zhezkazgan,KZ,11/9/2020 11:17,47.8,67.71,42.6,63,100,27.54
255,Gobabis,NA,11/9/2020 11:17,-22.45,18.97,89.42,16,3,4.18
256,Jardim,BR,11/9/2020 11:17,-21.48,-56.14,81.81,47,0,6.6
257,Acajutla,SV,11/9/2020 11:17,13.59,-89.83,66.99,100,36,4.16
258,Sinnamary,GF,11/9/2020 11:17,5.38,-52.95,80.01,77,17,9.6
259,Manokwari,ID,11/9/2020 11:17,-0.87,134.08,81.72,74,100,3
260,Muros,ES,11/9/2020 11:17,42.78,-9.06,60.01,86,36,1.99
261,Lagoa,PT,11/9/2020 11:17,39.05,-27.98,62.62,73,50,16.93
262,Bhusawal,IN,11/9/2020 11:17,21.05,75.77,85.33,23,0,5.64
263,Naifaru,MV,11/9/2020 11:17,5.44,73.37,84.27,71,91,8.1
264,Tecoanapa,MX,11/9/2020 11:17,16.52,-98.75,76.66,84,24,3.15
265,Ishigaki,JP,11/9/2020 11:17,24.34,124.16,69.8,77,75,13.87
266,Longyearbyen,SJ,11/9/2020 11:17,78.22,15.64,21.2,67,20,5.82
267,Gat,IL,11/9/2020 11:17,31.61,34.76,79,56,0,2.08
268,Nyurba,RU,11/9/2020 11:17,63.28,118.33,7.5,90,88,6.82
269,Plettenberg Bay,ZA,11/9/2020 11:17,-34.05,23.37,61.38,50,77,12.44
270,Husavik,IS,11/9/2020 11:17,66.04,-17.34,30.2,86,75,1.12
271,Xinzhou,CN,11/9/2020 11:17,38.41,112.73,47.34,47,0,0.92
272,Russell,US,11/9/2020 11:17,32.35,-85.2,69.8,88,90,5.82
273,Haimen,CN,11/9/2020 11:17,23.19,116.61,71.6,56,0,11.18
274,Bardiyah,LY,11/9/2020 11:17,31.76,25.09,68.99,70,2,17.27
275,Provideniya,RU,11/9/2020 11:17,64.38,-173.3,31.71,97,100,9.04
276,Atasu,KZ,11/9/2020 11:17,48.68,71.64,34.59,90,100,28.41
277,Vila Franca Do Campo,PT,11/9/2020 11:17,37.72,-25.43,64.4,59,20,11.41
278,Port Hueneme,US,11/9/2020 11:17,34.15,-119.2,43,80,1,3.36
279,Port Hardy,CA,11/9/2020 11:17,50.7,-127.42,42.8,100,75,4.16
280,Anloga,GH,11/9/2020 11:17,5.79,0.9,87.8,62,40,9.17
281,Alghero,IT,11/9/2020 11:17,40.56,8.32,68,77,0,4.7
282,Marsaxlokk,MT,11/9/2020 11:17,35.84,14.54,70,64,20,9.17
283,Mongo,TD,11/9/2020 11:17,12.18,18.69,94.15,18,7,3.04
284,Huanren,CN,11/9/2020 11:17,41.26,125.37,27.79,83,0,3.27
285,Eureka,US,11/9/2020 11:15,40.8,-124.16,32,69,1,4.47
286,San Jose,US,11/9/2020 11:14,37.34,-121.89,42.01,86,1,4.7
287,Khorinsk,RU,11/9/2020 11:17,52.17,109.77,27.86,93,0,0.29
288,Alofi,NU,11/9/2020 11:17,-19.06,-169.92,73.4,94,75,8.05
289,Kolaras,IN,11/9/2020 11:17,25.23,77.6,81.16,22,0,5.84
290,Olindina,BR,11/9/2020 11:17,-11.37,-38.33,78.33,67,26,9.44
291,Uyovu,TZ,11/9/2020 11:17,-3.28,31.53,76.35,74,88,7.29
292,Tazovskiy,RU,11/9/2020 11:17,67.47,78.7,6.37,95,99,11.97
293,Gap,FR,11/9/2020 11:17,44.67,6,57.99,69,25,3.98
294,Turka,UA,11/9/2020 11:17,49.15,23.03,53.01,76,31,4
295,Beidao,CN,11/9/2020 11:17,34.57,105.89,42.01,54,0,4
296,Ketchikan,US,11/9/2020 11:17,55.34,-131.65,41,93,90,27.51
297,Novouzensk,RU,11/9/2020 11:17,50.46,48.14,46.51,51,0,11.32
298,Segezha,RU,11/9/2020 11:17,63.74,34.32,36.28,87,100,18.5
299,Moncagua,SV,11/9/2020 11:17,13.53,-88.25,70.18,95,46,2.15
300,Port-Cartier,CA,11/9/2020 11:17,50.03,-66.87,30.2,92,100,1.12
301,Tura,IN,11/9/2020 11:17,25.52,90.22,71.13,84,0,3.04
302,Boulder,US,11/9/2020 11:14,40.08,-105.35,41,41,90,2.59
303,Swan River,CA,11/9/2020 11:17,52.11,-101.27,14,92,100,5.82
304,Xining,CN,11/9/2020 11:17,36.62,101.77,44.1,43,0,2.35
305,Berlevag,NO,11/9/2020 11:17,70.86,29.09,35.6,86,90,31.09
306,Ponta Delgada,PT,11/9/2020 11:17,37.73,-25.67,64.4,59,20,11.41
307,Mayuge,UG,11/9/2020 11:17,0.46,33.48,77.81,71,6,2.55
308,Airai,TL,11/9/2020 11:17,-8.93,125.41,64.6,98,100,2.82
309,Langsa,ID,11/9/2020 11:13,4.47,97.97,78.55,87,100,3.31
310,Gisborne,NZ,11/9/2020 11:17,-38.65,178,50,96,97,4.79
311,Yumen,CN,11/9/2020 11:17,40.28,97.2,34.56,77,0,1.19
312,Labuhan,ID,11/9/2020 11:17,-6.88,112.21,85.23,66,100,2.57
313,Korla,CN,11/9/2020 11:13,41.76,86.15,46.87,43,47,5.48
314,Gejiu,CN,11/9/2020 11:17,23.31,103.16,50.38,85,18,3.94
315,Pisco,PE,11/9/2020 11:17,-13.7,-76.22,60.8,87,75,2.24
316,Kavaratti,IN,11/9/2020 11:17,10.57,72.64,84.16,74,17,9.28
317,Salisbury,GB,11/9/2020 11:16,51.07,-1.8,57.99,93,75,10.29
318,Batemans Bay,AU,11/9/2020 11:17,-35.72,150.18,52,95,0,4.99
319,Erenhot,CN,11/9/2020 11:17,43.65,111.98,37.67,64,0,3.15
320,San Patricio,US,11/9/2020 11:17,28.02,-97.52,68,100,20,5.82
321,Naro-Fominsk,RU,11/9/2020 11:17,55.39,36.73,39.99,64,0,11.18
322,Derzhavinsk,KZ,11/9/2020 11:17,51.1,66.32,39.45,94,100,20.27
323,Orlik,RU,11/9/2020 11:17,52.52,99.83,25.36,88,0,1.88
324,Shahr-E Babak,IR,11/9/2020 11:17,30.12,55.12,68.25,21,0,6.93
325,Marawi,PH,11/9/2020 11:17,8,124.29,77,89,77,8.01
326,Olinda,BR,11/9/2020 11:17,-8.01,-34.86,80.6,88,75,9.17
327,Freeport,US,11/9/2020 11:14,40.66,-73.58,53.6,81,1,3.36
328,Port Macquarie,AU,11/9/2020 11:17,-31.43,152.92,63,72,55,2.04
329,Baillif,GP,11/9/2020 11:17,16.02,-61.75,77,94,98,2.24
330,Ambilobe,MG,11/9/2020 11:17,-13.2,49.05,96.98,27,100,0.94
331,Black Diamond,US,11/9/2020 11:15,47.31,-122,30.99,96,0,2.98
332,Beisfjord,NO,11/9/2020 11:17,68.38,17.6,39.2,60,75,16.11
333,Ikornnes,NO,11/9/2020 11:17,62.39,6.56,45,95,100,5.3
334,Chubbuck,US,11/9/2020 11:17,42.92,-112.47,28.4,74,90,4.7
335,Bismil,TR,11/9/2020 11:17,37.85,40.67,73.4,43,0,3.36
336,Saint Joseph,US,11/9/2020 11:17,39.77,-94.85,66.99,77,20,14.99
337,Thouars,FR,11/9/2020 11:17,46.98,-0.22,61,77,0,8.05
338,Muravlenko,RU,11/9/2020 11:17,63.79,74.52,21.81,98,86,3.71
339,Kodiak,US,11/9/2020 11:17,57.79,-152.41,44.6,33,1,38.03
340,Kantunilkin,MX,11/9/2020 11:17,21.09,-87.45,73.4,94,75,5.82
341,Wanaka,NZ,11/9/2020 11:16,-44.7,169.15,45.52,76,64,3.74
342,Lavrentiya,RU,11/9/2020 11:17,65.58,-171,29.97,98,100,17.52
343,Salekhard,RU,11/9/2020 11:17,66.53,66.6,20.79,98,100,3.47
344,Gubkinskiy,RU,11/9/2020 11:17,64.43,76.5,19.15,97,100,6.89
345,Devils Lake,US,11/9/2020 11:17,48.11,-98.87,25,68,1,18.34
346,Qujing,CN,11/9/2020 11:17,25.48,103.78,53.85,75,63,1.66
347,Parsons,US,11/9/2020 11:17,37.34,-95.26,66.2,88,90,13.87
348,Leningradskiy,RU,11/9/2020 11:17,69.38,178.42,18.32,94,96,6.35
349,Lata,PT,11/9/2020 11:15,40.16,-8.33,64.99,86,7,1.01
350,Iguai,BR,11/9/2020 11:17,-14.76,-40.09,73.69,75,87,4.25
351,Belen,TR,11/9/2020 11:17,36.49,36.22,68,49,40,5.82
352,Prescott,US,11/9/2020 11:17,34.54,-112.47,33.8,80,90,6.93
353,Hailar,CN,11/9/2020 11:17,49.2,119.7,16.3,94,11,8.59
354,Quthing,LS,11/9/2020 11:17,-30.4,27.7,81.57,27,76,17.45
355,Teguldet,RU,11/9/2020 11:17,57.31,88.17,37.06,80,88,11.14
356,Fort Morgan,US,11/9/2020 11:17,40.25,-103.8,35.6,64,40,17.22
357,Jalu,LY,11/9/2020 11:17,29.03,21.55,73.67,39,0,10.65
358,Lompoc,US,11/9/2020 11:17,34.64,-120.46,41,68,1,6.06
359,Margate,GB,11/9/2020 11:17,51.38,1.39,57.99,93,100,1.01
360,Mount Gambier,AU,11/9/2020 11:17,-37.83,140.77,71.6,53,70,1.12
361,Quartz Hill,US,11/9/2020 11:17,34.65,-118.22,35.6,80,1,9.17
362,Banda Aceh,ID,11/9/2020 11:17,5.56,95.32,81.66,76,100,5.23
363,Saint-Augustin,CA,11/9/2020 11:17,51.23,-58.65,30.11,81,100,9.1
364,Klaksvik,FO,11/9/2020 11:17,62.23,-6.59,50,100,100,11.41
365,Kalmar,SE,11/9/2020 11:17,56.66,16.36,46.99,87,90,5.82
366,Deputatskiy,RU,11/9/2020 11:17,69.3,139.9,0,89,2,3.2
367,Nabire,ID,11/9/2020 11:17,-3.37,135.48,79.03,80,88,2.06
368,Nevers,FR,11/9/2020 11:17,46.92,3.33,59,77,0,5.82
369,Chicama,PE,11/9/2020 11:17,-7.84,-79.15,59.45,86,100,2.77
370,Pitimbu,BR,11/9/2020 11:17,-7.47,-34.81,77,94,75,11.41
371,Navahrudak,BY,11/9/2020 11:17,53.6,25.83,41.86,75,14,4.88
372,Khandyga,RU,11/9/2020 11:17,62.67,135.6,0,87,0,2.26
373,Srednekolymsk,RU,11/9/2020 11:17,67.45,153.68,0,91,100,3.09
374,Voh,NC,11/9/2020 11:17,-20.97,164.7,71.62,74,70,7.18
375,Kibala,TD,11/9/2020 11:17,9.11,18.35,95,36,0,9.17
376,Mindelo,CV,11/9/2020 11:17,16.89,-24.98,82.4,65,40,31.09
377,Launceston,AU,11/9/2020 11:17,-41.45,147.17,55.99,71,38,12.75
378,Gazanjyk,TM,11/9/2020 11:17,39.24,55.52,60.53,32,0,2.75
379,Portland,US,11/9/2020 11:16,45.52,-122.68,34,86,75,3.36
380,Thinadhoo,MV,11/9/2020 11:17,0.53,72.93,84.83,72,100,10.78
381,Champerico,GT,11/9/2020 11:17,14.3,-91.92,75.49,90,41,5.12
382,Olafsvik,IS,11/9/2020 11:17,64.89,-23.71,42.66,79,100,17.25
383,Mayo,US,11/9/2020 11:17,38.89,-76.51,53.6,100,90,2.46
384,Bandarbeyla,SO,11/9/2020 11:17,9.49,50.81,81.46,67,0,17.29
385,Klyuchi,RU,11/9/2020 11:17,52.27,79.17,37.18,80,79,23.31
386,Aitape,PG,11/9/2020 11:17,-3.14,142.35,82.02,76,99,2.84
387,Namatanai,PG,11/9/2020 11:17,-3.67,152.43,81.48,75,94,6.58
388,Yanam,IN,11/9/2020 11:17,16.73,82.22,91.4,43,0,2.24
389,San Matias,BO,11/9/2020 11:17,-16.37,-58.4,77.54,77,94,6.53
390,Chara,RU,11/9/2020 11:17,56.91,118.26,12.6,92,87,2.19
391,Burnie,AU,11/9/2020 11:17,-41.07,145.92,55.99,77,88,1.99
392,Flinders,AU,11/9/2020 11:17,-34.58,150.86,61,74,17,7.05
393,Bilibino,RU,11/9/2020 11:17,68.05,166.44,0,90,99,0.98
394,Ambulu,ID,11/9/2020 11:17,-8.35,113.61,79.97,78,75,5.06
395,Pucallpa,PE,11/9/2020 11:17,-8.38,-74.55,72.77,96,95,1.41
396,Puerto Escondido,MX,11/9/2020 11:17,15.85,-97.07,77.99,79,1,3.02
397,Waddan,LY,11/9/2020 11:17,29.16,16.14,70.39,44,6,10.27
398,Saint George,US,11/9/2020 11:16,37.1,-113.58,39,93,75,5.82
399,Half Moon Bay,US,11/9/2020 11:17,37.46,-122.43,46.4,69,1,8.77
400,Peto,MX,11/9/2020 11:17,20.13,-88.92,70.39,96,68,4.09
401,Englehart,CA,11/9/2020 11:17,47.82,-79.87,53.6,81,75,12.75
402,Victoria,HK,11/9/2020 11:17,22.29,114.16,73.99,71,98,3
403,Barra Do Garcas,BR,11/9/2020 11:17,-15.89,-52.26,81.63,64,97,0.25
404,Eyl,SO,11/9/2020 11:17,7.98,49.82,86.14,55,0,24.2
405,Novyy Urgal,RU,11/9/2020 11:17,51.07,132.56,11.52,86,52,3.47
406,Ternate,ID,11/9/2020 11:17,0.8,127.4,81.45,75,14,5.32
407,Ardmore,US,11/9/2020 11:17,34.17,-97.14,68,88,90,12.75
408,Charlestown,AU,11/9/2020 11:17,-32.95,151.67,61,75,0,6.06
409,Saldanha,ZA,11/9/2020 11:17,-33.01,17.94,64.4,53,0,11.41
410,Batagay,RU,11/9/2020 11:17,67.63,134.63,0,82,0,2.75
411,Itoman,JP,11/9/2020 11:17,26.12,127.67,71.6,60,75,17.22
412,Morrope,PE,11/9/2020 11:17,-6.54,-80.01,61.95,84,100,8.63
413,Antibes,FR,11/9/2020 11:17,43.56,7.13,68,68,40,2.24
414,Mana,GF,11/9/2020 11:17,5.66,-53.78,79.2,79,13,7.99
415,Pacifica,US,11/9/2020 11:17,37.61,-122.49,50,42,1,4.7
416,Beian,NO,11/9/2020 11:17,63.66,9.57,44.6,93,75,9.17
417,Barranca,PE,11/9/2020 11:17,-10.75,-77.77,61,88,98,3.89
418,San Quintin,MX,11/9/2020 11:17,30.48,-115.95,59.4,64,32,16.42
419,Leh,IN,11/9/2020 11:17,34.17,77.58,43.3,37,90,2.66
420,Safford,US,11/9/2020 11:15,32.83,-109.71,51.8,50,20,8.05
421,Soure,BR,11/9/2020 11:17,-0.72,-48.52,82.6,75,88,9.84
422,Gumdag,TM,11/9/2020 11:17,39.21,54.59,60.3,38,0,1.3
423,Atar,MR,11/9/2020 11:17,20.52,-13.05,94.42,10,19,8.88
424,Nishihara,JP,11/9/2020 11:17,26.18,127.76,71.6,52,75,13.87
425,Terpinnya,UA,11/9/2020 11:17,46.97,35.42,51.69,69,80,4.92
426,Callaway,US,11/9/2020 11:17,30.15,-85.57,72,88,75,9.17
427,Jiwani,PK,11/9/2020 11:17,25.05,61.74,80.58,74,0,14.2
428,Asosa,ET,11/9/2020 11:17,10.07,34.53,78.06,50,1,4.45
429,Chuy,UY,11/9/2020 11:17,-33.7,-53.46,65.46,72,100,10.16
430,Bhag,PK,11/9/2020 11:17,29.04,67.82,90.32,11,4,5.41
431,Monroe,US,11/9/2020 11:17,43.15,-77.68,51.01,81,1,4.7
432,Gangarampur,IN,11/9/2020 11:17,25.4,88.52,77.32,58,0,5.46
433,Padang,ID,11/9/2020 11:12,-0.95,100.35,79.72,78,100,2.75
434,Khovu-Aksy,RU,11/9/2020 11:17,51.13,93.6,31.86,88,75,6.13
435,Grover Beach,US,11/9/2020 11:17,35.12,-120.62,46.4,86,1,5.82
436,Port Augusta,AU,11/9/2020 11:17,-32.5,137.77,77,33,23,3.36
437,General Roca,AR,11/9/2020 11:17,-39.03,-67.58,60.8,77,40,4.7
438,Hwange,ZW,11/9/2020 11:17,-18.37,26.5,105.33,12,90,7.85
439,Bac Lieu,VN,11/9/2020 11:17,9.29,105.72,79.68,79,87,3.58
440,Qui Nhon,VN,11/9/2020 11:13,13.77,109.23,74.03,92,100,26.64
441,Bismarck,US,11/9/2020 11:15,46.81,-100.78,23,67,1,13.87
442,Nagato,JP,11/9/2020 11:17,34.38,131.2,55.4,46,0,4.7
443,Ouadda,CF,11/9/2020 11:17,8.08,22.4,91.22,26,0,5.48
444,Kysyl-Syr,RU,11/9/2020 11:17,63.9,122.76,0,89,1,6.82
445,Piacabucu,BR,11/9/2020 11:17,-10.41,-36.43,79.07,78,34,12.77
446,Wahiawa,US,11/9/2020 11:17,21.5,-158.02,77,100,75,10.83
447,Safaga,EG,11/9/2020 11:17,26.73,33.94,84.2,25,0,5.82
448,Isla Mujeres,MX,11/9/2020 11:17,21.23,-86.73,73.4,94,75,5.82
449,Oranjemund,NA,11/9/2020 11:17,-28.55,16.43,64.4,54,0,27.02
450,Pokhara,NP,11/9/2020 11:13,28.23,83.98,68.67,42,0,1.97
451,Gemena,CD,11/9/2020 11:17,3.25,19.77,89.92,46,59,4.74
452,Sabang,ID,11/9/2020 11:17,5.89,95.32,82.31,71,100,5.06
453,Saint-Joseph,RE,11/9/2020 11:17,-21.37,55.62,80.6,69,20,23.04
454,Nicoya,CR,11/9/2020 11:17,10.15,-85.45,72.88,94,71,1.23
455,Tiarei,PF,11/9/2020 11:17,-17.53,-149.33,77,83,100,4.7
456,Bentiu,SS,11/9/2020 11:17,9.23,29.83,94.24,19,8,8.55
457,Ilulissat,GL,11/9/2020 11:17,69.22,-51.1,14,72,75,5.82
458,Smithers,CA,11/9/2020 11:17,54.78,-127.17,26.6,86,90,2.24
459,Kouroussa,GN,11/9/2020 11:17,10.65,-9.88,90.52,29,64,1.99
460,Cancun,MX,11/9/2020 11:15,21.17,-86.85,73.4,94,75,5.82
461,Carnot,CF,11/9/2020 11:17,4.94,15.87,88.99,36,2,5.57
462,Wilmington,US,11/9/2020 11:17,34.23,-77.94,68,93,40,6.93
463,Kuzedeyevo,RU,11/9/2020 11:17,53.33,87.2,37,92,100,8.86
464,Dumas,US,11/9/2020 11:17,35.87,-101.97,60.01,87,1,24.16
465,Kasama,ZM,11/9/2020 11:17,-10.21,31.18,93.76,19,64,8.14
466,Bowen,AU,11/9/2020 11:17,-20.02,148.23,69.8,88,90,5.82
467,Arshan,RU,11/9/2020 11:17,46.27,44.22,48.2,81,90,15.66
468,Umm Kaddadah,SD,11/9/2020 11:17,13.6,26.69,87.08,18,0,11.25
469,San Andres,CO,11/9/2020 11:14,12.58,-81.7,80.6,88,20,9.17
470,Camopi,GF,11/9/2020 11:17,3.17,-52.32,77.23,79,66,1.86
471,Mocuba,MZ,11/9/2020 11:17,-16.84,36.99,107.64,15,52,7.61
472,Tucupita,VE,11/9/2020 11:17,9.06,-62.05,73.94,96,84,4.05
473,Vilyuysk,RU,11/9/2020 11:17,63.76,121.62,0,89,18,7.43
474,Channel-Port Aux Basques,CA,11/9/2020 11:17,47.57,-59.14,36.95,81,100,6.71
475,Angoche,MZ,11/9/2020 11:17,-16.23,39.91,87.48,57,8,15.08
476,Bam,IR,11/9/2020 11:17,29.11,58.36,76.91,18,0,14.36
477,Rawson,AR,11/9/2020 11:17,-43.3,-65.1,69.35,59,60,11.88
478,Vostok,RU,11/9/2020 11:17,46.49,135.88,8.76,95,99,6.31
479,Springdale,US,11/9/2020 11:17,36.19,-94.13,66.2,88,90,11.41
480,Khani,GE,11/9/2020 11:17,41.96,42.96,66.2,42,0,4.7
481,Kamenka,RU,11/9/2020 11:17,51.32,42.77,44.01,61,0,1.01
482,Murwillumbah,AU,11/9/2020 11:17,-28.32,153.4,64.99,88,75,8.05
483,Nova Borova,UA,11/9/2020 11:18,50.69,28.63,48.07,62,85,2.15
484,Podyuga,RU,11/9/2020 11:18,61.09,40.86,34.29,86,77,10.47
485,Karratha,AU,11/9/2020 11:18,-20.74,116.85,76.71,53,0,19.42
486,Berdigestyakh,RU,11/9/2020 11:18,62.1,126.7,0,90,51,3.6
487,Paranaiba,BR,11/9/2020 11:18,-19.68,-51.19,84.04,53,0,5.66
488,Gunjur,GM,11/9/2020 11:18,13.2,-16.73,89.6,62,0,4.97
489,Bulgan,MN,11/9/2020 11:18,48.81,103.53,33.4,82,0,3.2
490,Goure,NE,11/9/2020 11:18,13.98,10.27,86,21,12,5.01
491,High Rock,BS,11/9/2020 11:18,26.62,-78.28,78.8,88,90,13.87
492,Pauini,BR,11/9/2020 11:18,-7.71,-66.98,77.05,85,90,3.83
493,Cherskiy,RU,11/9/2020 11:18,68.75,161.3,1.71,93,99,4.88
494,Slatina,RO,11/9/2020 11:18,44.43,24.37,42.8,93,90,1.12
495,Doha,QA,11/9/2020 11:18,25.29,51.53,91.99,48,20,6.93
496,Coihueco,CL,11/9/2020 11:18,-36.62,-71.83,55,100,0,5.82
497,Uyuni,BO,11/9/2020 11:18,-20.46,-66.83,48.22,44,0,10.67
498,Forbes,AU,11/9/2020 11:15,-33.38,148.02,63.95,48,7,6.04
499,Kirakira,SB,11/9/2020 11:18,-10.45,161.92,80.73,79,41,2.48
500,Rochegda,RU,11/9/2020 11:18,62.8,43.25,32.07,96,100,10.16
501,Camacupa,AO,11/9/2020 11:18,-12.02,17.48,89.4,32,5,4.47
502,Aasiaat,GL,11/9/2020 11:18,68.71,-52.87,7.95,86,100,6.71
503,Mnogovershinnyy,RU,11/9/2020 11:18,53.94,139.92,11.46,96,100,9.71
504,Puerto Maldonado,PE,11/9/2020 11:18,-12.6,-69.18,76.5,78,77,1.07
505,Egvekinot,RU,11/9/2020 11:18,66.32,-179.17,17.53,97,90,14.32
506,Manaus,BR,11/9/2020 11:13,-3.1,-60.02,77,94,75,4.7
507,Ancud,CL,11/9/2020 11:18,-41.87,-73.82,53.01,93,1,6.93
508,Merrill,US,11/9/2020 11:18,45.18,-89.68,60.8,93,1,6.93
509,Karaj,IR,11/9/2020 11:18,35.84,51.01,62.6,41,0,4.7
510,Werda,BW,11/9/2020 11:18,-25.27,23.28,91.96,24,93,7.11
511,Luau,AO,11/9/2020 11:18,-10.71,22.22,92.55,42,53,1.52
512,Ariquemes,BR,11/9/2020 11:16,-9.91,-63.04,74.84,90,100,2.37
513,Guerrero Negro,MX,11/9/2020 11:18,27.98,-114.06,62.91,64,65,9.57
514,Tongchuan,CN,11/9/2020 11:18,35.08,109.09,55.06,41,0,3.51
515,Rapar,IN,11/9/2020 11:18,23.57,70.63,86.79,23,0,7.2
516,Taoudenni,ML,11/9/2020 11:18,22.68,-3.98,91.36,11,21,7.23
517,Praya,CV,11/9/2020 11:18,14.92,-23.51,84.2,62,20,24.16
518,Kuching,MY,11/9/2020 11:18,1.55,110.33,75.2,94,40,10.29
519,Miraflores,MX,11/9/2020 11:18,19.22,-98.81,51.8,62,5,5.82
520,Nguruka,TZ,11/9/2020 11:18,-5.11,31.04,92.34,26,95,6.71
521,Chardara,KZ,11/9/2020 11:18,41.25,67.97,53.67,42,0,1.25
522,Amsterdam,NL,11/9/2020 11:18,52.37,4.89,61,77,0,9.17
523,Luanda,AO,11/9/2020 11:18,-8.84,13.23,73.4,94,90,9.17
524,Serenje,ZM,11/9/2020 11:18,-13.23,30.24,93.09,14,38,12.53
525,Zhangjiakou,CN,11/9/2020 11:18,40.81,114.88,42.31,53,0,4.5
526,Trogir,HR,11/9/2020 11:18,43.51,16.25,64.4,48,0,4.7
527,Sheltozero,RU,11/9/2020 11:18,61.37,35.37,37.49,79,23,17.47
528,Shumikha,RU,11/9/2020 11:18,55.23,63.3,33.93,89,93,13.53
529,Vega De Alatorre,MX,11/9/2020 11:18,20.03,-96.63,71.87,78,4,3.76
530,San Rafael,AR,11/9/2020 11:18,-34.62,-68.33,68.31,59,100,1.3
531,Kurilsk,RU,11/9/2020 11:18,45.23,147.88,34.72,85,80,16.6
532,Sire,NG,11/9/2020 11:18,12.93,5.2,88.72,15,63,14.32
533,Miri,MY,11/9/2020 11:18,4.41,114.01,78.8,94,40,6.93
534,Tiznit,MA,11/9/2020 11:18,29.58,-9.5,70.2,37,61,3.8
535,Fare,PF,11/9/2020 11:18,-16.7,-151.02,78.73,80,100,14.36
536,Krasnoselkup,RU,11/9/2020 11:18,65.7,82.47,13.86,96,100,12.62
537,Challans,FR,11/9/2020 11:18,46.84,-1.87,63,87,75,8.05
538,Ocampo,MX,11/9/2020 11:18,21.65,-101.5,46.47,77,45,0.69
539,Walvis Bay,NA,11/9/2020 11:18,-22.96,14.51,64.99,73,44,8.01
540,Moose Factory,CA,11/9/2020 11:18,51.26,-80.61,50,100,1,12.75
541,Bathsheba,BB,11/9/2020 11:18,13.22,-59.52,78.8,88,40,13.87
542,Erie,US,11/9/2020 11:17,42.77,-78.67,51.01,66,1,4.7
543,Cedar City,US,11/9/2020 11:16,37.68,-113.06,26.6,86,75,10.29
544,Sao Jose Da Coroa Grande,BR,11/9/2020 11:18,-8.9,-35.15,79.86,80,23,14.81
545,Sterling,US,11/9/2020 11:16,39.01,-77.43,51.01,100,90,1.39
546,Tilichiki,RU,11/9/2020 11:18,60.47,166.1,5.86,93,2,11.86
547,Aripuana,BR,11/9/2020 11:18,-9.17,-60.63,72.7,94,100,2.44
548,Oistins,BB,11/9/2020 11:14,13.07,-59.53,78.8,88,40,13.87
549,La Ronge,CA,11/9/2020 11:18,55.1,-105.28,10.4,78,87,9.17
550,Nemuro,JP,11/9/2020 11:18,43.32,145.57,39.25,73,100,9.53
551,Kruisfontein,ZA,11/9/2020 11:18,-34,24.73,57,86,100,8.01
552,Yakeshi,CN,11/9/2020 11:18,49.28,120.73,7.2,91,9,5.14
553,Abilene,US,11/9/2020 11:17,32.45,-99.73,63,88,1,17.22
554,Kamaishi,JP,11/9/2020 11:18,39.27,141.88,39.2,86,75,8.05
555,Tiksi,RU,11/9/2020 11:18,71.69,128.87,0,86,0,4.92
556,Paracuru,BR,11/9/2020 11:18,-3.41,-39.03,82.4,74,40,11.41
557,Shubarshi,KZ,11/9/2020 11:18,48.59,57.19,45.99,81,100,19.77
558,Mount Isa,AU,11/9/2020 11:18,-20.73,139.5,84.2,14,0,7.76
559,Miles City,US,11/9/2020 11:18,46.41,-105.84,15.8,72,1,16.11
560,Ugoofaaru,MV,11/9/2020 11:18,5.67,73,84.42,71,100,9.24
561,Tara,RU,11/9/2020 11:18,56.89,74.37,34.72,87,99,14.65
562,Apatin,RS,11/9/2020 11:18,45.67,18.98,46.4,100,90,1.12
563,Baoqing,CN,11/9/2020 11:18,46.33,132.21,17.46,87,5,7.56
564,Kajaani,FI,11/9/2020 11:18,64.23,27.73,41,67,0,19.46
565,Borazjan,IR,11/9/2020 11:18,29.27,51.22,91.08,19,5,12.53
566,Atikokan,CA,11/9/2020 11:18,48.76,-91.62,52.29,86,75,7.09
567,Patti,IN,11/9/2020 11:18,31.28,74.86,80.6,36,0,5.82
568,Goderich,CA,11/9/2020 11:18,43.75,-81.72,57.2,58,20,9.17
